[
  {
    "city": "Minneapolis",
    "zone": "I94",
    "route_id": "I-94-WB",
    "name": "I-94 Westbound (Minneapolis)",
    "lat": 46.847389094679684,
    "lon": -96.77771143449046
  },
  {
    "city": "Seattle",
    "zone": "FremontBridge",
    "route_id": "Fremont-Total",
    "name": "Fremont Bridge Total",
    "lat": 47.64764127454873,
    "lon": -122.34977870138864
  },
  {
    "city": "Seattle",
    "zone": "FremontBridge",
    "route_id": "Fremont-East",
    "name": "Fremont Bridge East Sidewalk",
    "lat": 47.64707164206782,
    "lon": -122.34989681607102
  },
  {
    "city": "Seattle",
    "zone": "FremontBridge",
    "route_id": "Fremont-West",
    "name": "Fremont Bridge West Sidewalk",
    "lat": 47.64927823150597,
    "lon": -122.3497507762111
  },
  {
    "city": "HoChiMinh",
    "zone": "HCMC",
    "route_id": "ly_thuong_kiet",
    "name": "Lý Thường Kiệt (HCMC)",
    "lat": 10.776291062388012,
    "lon": 106.657060397801
  },
  {
    "city": "HoChiMinh",
    "zone": "HCMC",
    "route_id": "nguyen_kiem",
    "name": "Nguyễn Kiệm (HCMC)",
    "lat": 10.494633559895567,
    "lon": 107.26940895550327
  },
  {
    "city": "HoChiMinh",
    "zone": "HCMC",
    "route_id": "nguyen_dinh_chieu",
    "name": "Nguyễn Ðình Chiểu (HCMC)",
    "lat": 10.804111435462564,
    "lon": 106.68104534427115
  },
  {
    "city": "HoChiMinh",
    "zone": "HCMC",
    "route_id": "le_duc_tho",
    "name": "Lê Đức Thọ (HCMC)",
    "lat": 10.84844704577172,
    "lon": 106.66753583858855
  },
  {
    "city": "HoChiMinh",
    "zone": "HCMC",
    "route_id": "quoc_lo_1a",
    "name": "Quốc lộ 1A (HCMC)",
    "lat": 10.766989848596282,
    "lon": 106.59056290975201
  },
  {
    "city": "HoChiMinh",
    "zone": "HCMC",
    "route_id": "to_hien_thanh",
    "name": "Tô Hiến Thành (HCMC)",
    "lat": 10.777516797298206,
    "lon": 106.66465761993518
  },
  {
    "city": "HoChiMinh",
    "zone": "HCMC",
    "route_id": "truong_chinh",
    "name": "Trường Chinh (HCMC)",
    "lat": 10.817068042134524,
    "lon": 106.6318617520814
  }
]
